[{
  "nom": "Altran Technologies",
  "adresse": "17 Avenue Didier Daurat",
  "ville": "Blagnac",
  "pays": "France",
  "region": "Sud-Ouest",
  "email": "contact@altran.fr",
  "site": "https://www.altran.com/fr/fr/",
  "type": "Entreprise",
  "soustype": "ESN",
  "latitude": 43.6310654,
  "longitude": 1.377264,
  "nbCDI": 1,
  "nbStage": 0
},
{
  "nom": "Apside Toulouse",
  "adresse": "Espace Jeanne d’Arc, 9, rue Matabiau",
  "ville": "Toulouse",
  "pays": "France",
  "region": "Sud-Ouest",
  "email": "contact@apside.com",
  "site": "https://www.apside.com",
  "type": "Entreprise",
  "soustype": "ESN",
  "latitude": 43.610522,
  "longitude": 1.4468294,
  "nbCDI": 0,
  "nbStage": 1
},
{
  "nom": "X-Prime",
  "adresse": "Immeuble Phénix, bât A, 118 Route d'Espagne",
  "ville": "Toulouse",
  "pays": "France",
  "region": "Sud-Ouest",
  "email": "contact@xprimegroup.com",
  "site": "https://www.xprimegroupe.com/",
  "type": "Entreprise",
  "soustype": "Agence web",
  "latitude": 43.570439,
  "longitude": 1.423888,
  "nbCDI": 1,
  "nbStage": 0
},
{
  "nom": "Morning",
  "adresse": "ZA, Descaillaux",
  "ville": "Saint-Élix-le-Château",
  "pays": "France",
  "region": "Sud-Ouest",
  "email": "contact@morning.com",
  "site": "https://morning.com",
  "type": "Entreprise",
  "soustype": "Startup",
  "latitude": 43.269319,
  "longitude": 1.125443,
  "nbCDI": 1,
  "nbStage": 0
},
{
  "nom": "Ekito",
  "adresse": "15 Rue Gabriel Péri",
  "ville": "Toulouse",
  "pays": "France",
  "region": "Sud-Ouest",
  "email": "contact@ekito.fr",
  "site": "https://www.ekito.fr",
  "type": "Ecosystème",
  "soustype": "Incubateur",
  "latitude": 43.605988,
  "longitude": 1.452122,
  "nbCDI": 1,
  "nbStage": 0
}]
